year,city,country,latitude,longitude
2016,Istanbul,Turkey,41.0523584,28.9990102
2014,Tehran,Iran,35.6970118,51.2097344
2009 & 2013,Kuala Lumpur,Malaysia,3.0418273,101.5764371
2012,Bangkok,Thailand,13.7251097,100.3529192
2010,Beijing,China,39.9390731,116.1172752
2006,Singapore,Singapore,1.3150701,103.7069334
2000,Erfurt,Germany,50.964846,11.0187075
