year,city,country,latitude,longitude
2021,Lisbon,Portugal,38.7207929,-9.1564857
2016,Istanbul,Turkey,41.0523584,28.9990102
2014 / 2017-20,Tehran,Iran,35.6970118,51.2097344
2009 / 2013-14,KL,Malaysia,3.0418273,101.5764371
2012,Bangkok,Thailand,13.7251097,100.3529192
2010,Beijing,China,39.9390731,116.1172752
2006,Singapore,Singapore,1.3150701,103.7069334
2000,all over,Germany,52.515707,13.345055
